City_ID,City,Country,Lat,Lng,Max Temp,%Humidity,%Cloudiness,Wind Speed,Description
0,Thompson,CA,55.7435,-97.8558,14.16,26,0,3.44,clear sky
1,Rikitea,PF,-23.1203,-134.9692,79.3,63,5,7.54,clear sky
2,Kupang,ID,-10.1667,123.5833,82.36,77,23,1.21,few clouds
3,Busselton,AU,-33.65,115.3333,60.8,65,0,15.61,clear sky
4,Hilo,US,19.7297,-155.09,80.33,61,20,9.22,few clouds
5,Port Alfred,ZA,-33.5906,26.891,64.18,93,100,1.99,overcast clouds
6,Hobart,AU,-42.8794,147.3294,64.26,80,100,5.75,light rain
7,Zhezkazgan,KZ,47.8043,67.7144,20.75,95,100,2.15,overcast clouds
8,Hermanus,ZA,-34.4187,19.2345,61.81,64,100,4.34,overcast clouds
9,Aksarka,RU,66.5606,67.7975,16.79,94,100,13.09,light snow
10,Severo-Kurilsk,RU,50.6789,156.125,32.77,89,96,26.19,light snow
11,Victoria,HK,22.2855,114.1577,64.94,93,100,4.0,light rain
12,Margate,GB,51.3813,1.3862,46.31,91,0,1.99,clear sky
13,Saint-Leu,RE,-21.15,55.2833,77.86,83,12,4.88,few clouds
14,Broome,US,42.2506,-75.833,23.7,76,75,11.5,broken clouds
15,Pochutla,MX,15.7432,-96.4661,81.82,72,100,3.85,overcast clouds
16,Issia,CI,6.4922,-6.5856,74.3,94,21,2.42,few clouds
17,Sitka,US,57.0531,-135.33,44.49,70,20,9.22,few clouds
18,Carnarvon,AU,-24.8667,113.6333,77.07,73,0,6.91,clear sky
19,Albany,US,42.6001,-73.9662,28.06,66,100,3.0,overcast clouds
20,Lasa,IT,46.6166,10.7002,41.88,68,1,1.23,clear sky
21,Rio Grande,BR,-32.035,-52.0986,59.95,68,0,0.92,clear sky
22,Vaini,TO,-21.2,-175.2,82.56,83,75,6.91,broken clouds
23,Yellowknife,CA,62.456,-114.3525,18.41,58,40,4.61,scattered clouds
24,Puerto Ayora,EC,-0.7393,-90.3518,78.57,83,100,8.34,overcast clouds
25,Hammerfest,NO,70.6634,23.6821,12.65,62,28,2.3,scattered clouds
26,Saskylakh,RU,71.9167,114.0833,-1.32,95,100,5.44,overcast clouds
27,Atuona,PF,-9.8,-139.0333,79.11,78,91,15.37,overcast clouds
28,Kapaa,US,22.0752,-159.319,79.2,66,0,9.22,clear sky
29,Cidreira,BR,-30.1811,-50.2056,69.15,79,0,9.01,clear sky
30,Castro,BR,-24.7911,-50.0119,62.78,80,4,1.01,clear sky
31,Sao Filipe,CV,14.8961,-24.4956,70.41,73,100,5.91,overcast clouds
32,Lebu,CL,-37.6167,-73.65,53.53,86,2,9.42,clear sky
33,Mataura,NZ,-46.1927,168.8643,71.1,49,3,1.95,clear sky
34,Chokurdakh,RU,70.6333,147.9167,-2.33,93,21,5.23,few clouds
35,Kodiak,US,57.79,-152.4072,33.31,100,100,24.16,snow
36,Punta Arenas,CL,-53.15,-70.9167,42.91,75,40,10.36,scattered clouds
37,Marana,US,32.4367,-111.2254,91.99,6,0,9.22,clear sky
38,Bolshoye Selo,RU,57.7177,38.9334,17.26,91,99,8.81,overcast clouds
39,Sorland,NO,67.667,12.6934,32.94,92,100,25.32,light snow
40,Barrow,US,71.2906,-156.7887,3.22,72,40,19.57,scattered clouds
41,Morant Bay,JM,17.8815,-76.4093,82.02,83,17,12.46,few clouds
42,Norman Wells,CA,65.282,-126.8329,6.84,66,75,5.75,light snow
43,Aklavik,CA,68.2191,-135.0107,5.54,84,100,1.99,overcast clouds
44,Seoul,KR,37.5683,126.9778,45.97,38,0,1.14,clear sky
45,Chuy,UY,-33.6971,-53.4616,62.4,65,0,3.44,clear sky
46,Bluff,NZ,-46.6,168.3333,59.29,77,0,2.82,clear sky
47,Ushuaia,AR,-54.8,-68.3,46.06,66,20,8.05,few clouds
48,Mazamari,PE,-11.3258,-74.5308,69.6,99,80,1.28,broken clouds
49,Tuatapere,NZ,-46.1333,167.6833,66.76,63,12,5.44,few clouds
50,Guerrero Negro,MX,27.9769,-114.0611,65.7,64,100,11.05,overcast clouds
51,Cherskiy,RU,68.75,161.3,6.73,85,97,8.08,overcast clouds
52,Butaritari,KI,3.0707,172.7902,81.23,65,76,6.49,broken clouds
53,Rancho Palos Verdes,US,33.7445,-118.387,67.41,74,20,8.05,few clouds
54,Hasaki,JP,35.7333,140.8333,57.6,69,91,15.35,overcast clouds
55,High Level,CA,58.5169,-117.136,33.91,60,0,6.91,clear sky
56,Katsuura,JP,35.1333,140.3,55.56,81,100,11.25,overcast clouds
57,Leningradskiy,RU,69.3833,178.4167,1.54,84,17,3.04,few clouds
58,Kampot,KH,10.6167,104.1833,78.85,74,100,1.32,overcast clouds
59,Arraial Do Cabo,BR,-22.9661,-42.0278,76.82,91,95,6.38,overcast clouds
60,Upernavik,GL,72.7868,-56.1549,13.96,76,95,4.79,overcast clouds
61,Lahaina,US,20.8783,-156.6825,84.2,67,13,6.33,few clouds
62,Hervey Bay,AU,-25.2986,152.8535,80.02,81,5,5.99,clear sky
63,Avarua,CK,-21.2078,-159.775,82.45,78,40,8.05,scattered clouds
64,Mount Gambier,AU,-37.8333,140.7667,67.91,64,75,11.5,broken clouds
65,Esperance,AU,-33.8667,121.9,64.24,64,63,12.46,broken clouds
66,Cap-Aux-Meules,CA,47.3821,-61.8597,32.05,86,75,2.3,broken clouds
67,Hithadhoo,MV,-0.6,73.0833,81.39,66,2,6.06,clear sky
68,Tomatlan,MX,19.9333,-105.25,75.9,46,5,5.01,clear sky
69,Santa Marta,CO,11.2408,-74.199,84.25,73,75,15.99,broken clouds
70,Tual,ID,-5.6667,132.75,79.21,85,100,16.84,overcast clouds
71,Alofi,NU,-19.0595,-169.9187,84.09,79,92,10.36,overcast clouds
72,Havelock,US,34.8791,-76.9013,58.98,43,0,9.06,clear sky
73,Bathsheba,BB,13.2167,-59.5167,77.83,72,94,15.82,overcast clouds
74,Moreira Sales,BR,-24.0622,-53.0069,65.28,71,0,2.48,clear sky
75,Ribeira Grande,PT,38.5167,-28.7,60.12,83,99,9.93,overcast clouds
76,Sarakhs,IR,36.5449,61.1577,42.94,70,0,2.3,clear sky
77,Marawi,PH,7.9986,124.2928,76.57,75,62,0.58,broken clouds
78,Erenhot,CN,43.6475,111.9767,41.13,28,49,19.35,scattered clouds
79,Lagoa,PT,39.05,-27.9833,58.71,84,100,11.14,overcast clouds
80,Tasiilaq,GL,65.6145,-37.6368,26.76,69,100,8.72,overcast clouds
81,Griffith,US,41.5284,-87.4237,31.14,64,0,8.05,clear sky
82,Tiksi,RU,71.6872,128.8694,0.12,93,100,3.89,overcast clouds
83,Riachao Das Neves,BR,-11.7461,-44.91,75.42,64,100,1.14,overcast clouds
84,Port Hedland,AU,-20.3167,118.5667,86.05,66,97,10.36,overcast clouds
85,Albury,AU,-36.0833,146.9167,76.32,83,40,3.44,scattered clouds
86,Marsh Harbour,BS,26.5412,-77.0636,71.22,51,0,18.12,clear sky
87,Nanortalik,GL,60.1432,-45.2371,28.31,82,16,6.64,few clouds
88,Bethel,US,41.3712,-73.414,36.48,67,100,14.97,overcast clouds
89,Bredasdorp,ZA,-34.5322,20.0403,64.92,69,100,4.03,overcast clouds
90,Ust-Omchug,RU,61.15,149.6333,5.49,87,77,8.84,broken clouds
91,Koumac,NC,-20.5667,164.2833,84.33,63,68,4.23,broken clouds
92,Cao Bang,VN,22.6667,106.25,64.45,82,65,3.27,broken clouds
93,Kastamonu,TR,41.5,33.6667,29.28,94,22,2.68,few clouds
94,Khatanga,RU,71.9667,102.5,-8.05,97,100,8.08,overcast clouds
95,Gravdal,NO,68.1214,13.5031,30.2,90,100,20.09,light snow
96,Srednekolymsk,RU,67.45,153.6833,12.11,72,19,3.89,few clouds
97,Hobyo,SO,5.3505,48.5268,79.16,66,70,11.95,broken clouds
98,Provideniya,RU,64.3833,-173.3,19.51,73,0,0.0,clear sky
99,Tokur,RU,53.1333,132.9,18.45,70,4,2.68,clear sky
100,Sao Desiderio,BR,-12.3633,-44.9733,77.95,61,100,1.68,overcast clouds
101,Mar Del Plata,AR,-38.0023,-57.5575,60.87,76,0,4.61,clear sky
102,Ponta Do Sol,PT,32.6667,-17.1,63.05,78,100,5.75,overcast clouds
103,Acapulco,MX,16.8634,-99.8901,82.22,54,100,4.61,smoke
104,Soure,BR,-0.7167,-48.5233,78.3,88,100,7.94,very heavy rain
105,Turayf,SA,31.6725,38.6637,44.85,57,0,11.5,clear sky
106,Vanimo,PG,-2.6741,141.3028,84.94,68,100,6.96,overcast clouds
107,Shetpe,KZ,44.1667,52.1167,37.24,94,100,6.53,overcast clouds
108,Wajir,KE,1.7471,40.0573,80.06,70,16,12.93,few clouds
109,Saint-Pierre,RE,-21.3393,55.4781,78.48,74,100,3.44,overcast clouds
110,Haines Junction,CA,60.7522,-137.5108,35.55,48,90,10.36,overcast clouds
111,Caravelas,BR,-17.7125,-39.2481,75.88,84,1,4.74,clear sky
112,Vardo,NO,70.3705,31.1107,26.55,57,100,12.75,light snow
113,Saint-Philippe,RE,-21.3585,55.7679,78.39,84,47,8.46,scattered clouds
114,Dakar,SN,14.6937,-17.4441,66.33,88,20,11.5,few clouds
115,Qaanaaq,GL,77.484,-69.3632,10.33,95,100,6.89,overcast clouds
116,Mandalgovi,MN,45.7625,106.2708,36.93,31,100,7.45,overcast clouds
117,Cape Town,ZA,-33.9258,18.4232,67.12,73,0,13.8,clear sky
118,Bubaque,GW,11.2833,-15.8333,76.37,64,100,18.43,overcast clouds
119,Chernyshevskiy,RU,63.0128,112.4714,18.18,93,100,3.06,light snow
120,Faya,SA,18.3851,42.4509,57.31,40,0,3.0,clear sky
121,Inirida,CO,3.8653,-67.9239,74.05,96,90,3.31,light rain
122,Serebriya,UA,48.4559,27.7192,35.69,52,30,2.75,scattered clouds
123,Atasu,KZ,48.6814,71.6433,19.49,98,88,7.29,overcast clouds
124,Fairbanks,US,64.8378,-147.7164,40.96,55,0,3.44,clear sky
125,Mahebourg,MU,-20.4081,57.7,75.49,94,40,3.44,scattered clouds
126,Bengkulu,ID,-3.8004,102.2655,76.6,79,20,5.5,few clouds
127,Vihari,PK,30.0333,72.35,74.7,14,0,5.12,clear sky
128,Sangar,RU,63.9242,127.4739,17.67,87,98,12.64,overcast clouds
129,Luba,GQ,3.4568,8.5547,78.69,81,48,7.67,scattered clouds
130,Maine-Soroa,NE,13.2114,12.0241,69.93,11,13,12.12,few clouds
131,Kupino,RU,54.3663,77.2981,11.12,98,93,2.24,overcast clouds
132,Kaitangata,NZ,-46.2817,169.8464,67.01,62,1,4.83,clear sky
133,Airai,TL,-8.9266,125.4092,69.37,67,100,1.32,overcast clouds
134,Santa Isabel,BR,-23.3156,-46.2214,70.9,97,100,3.6,overcast clouds
135,Blonie,PL,52.1985,20.6171,46.15,54,9,11.05,clear sky
136,Nanakuli,US,21.3906,-158.1547,79.61,62,100,8.05,overcast clouds
137,Vostok,RU,46.4856,135.8833,26.31,84,100,9.06,overcast clouds
138,Sainte-Marie,RE,-20.8968,55.5496,78.96,83,100,8.05,overcast clouds
139,Viedma,AR,-40.8135,-62.9967,60.73,56,0,16.98,clear sky
140,Sur,OM,22.5667,59.5289,78.93,43,0,2.77,clear sky
141,Dawei,MM,14.0833,98.2,81.3,76,98,2.46,overcast clouds
142,Adrar,MR,20.5022,-10.0711,77.38,12,5,3.11,clear sky
143,Dikson,RU,73.5069,80.5464,-18.02,100,92,4.47,overcast clouds
144,Port Elizabeth,ZA,-33.918,25.5701,65.1,97,0,5.75,clear sky
145,Isangel,VU,-19.55,169.2667,87.91,70,75,4.61,broken clouds
146,Nacozari,MX,25.3366,-108.2574,81.1,38,33,7.18,scattered clouds
147,Narsaq,GL,60.9167,-46.05,41.22,73,27,6.78,scattered clouds
148,Caconda,AO,-13.7333,15.0667,60.8,93,97,1.05,light rain
149,Jamestown,US,42.097,-79.2353,20.79,57,100,14.97,overcast clouds
150,Warmbad,NA,-28.45,18.7333,76.68,25,36,6.69,scattered clouds
151,Asau,RO,46.4333,26.4,27.52,54,7,2.24,clear sky
152,Ilhabela,BR,-23.7781,-45.3581,75.58,92,100,4.5,overcast clouds
153,Longkou,CN,37.6508,120.3286,45.46,44,0,13.6,clear sky
154,Nome,US,64.5011,-165.4064,28.47,69,0,5.75,clear sky
155,Beringovskiy,RU,63.05,179.3167,8.73,84,12,7.85,few clouds
156,Udachnyy,RU,66.4167,112.4,7.45,92,99,4.52,overcast clouds
157,Baranchinskiy,RU,58.1617,59.6991,32.18,98,100,7.49,light snow
158,Kavieng,PG,-2.5744,150.7967,84.38,70,47,8.95,scattered clouds
159,Carutapera,BR,-1.195,-46.02,76.68,90,100,5.35,moderate rain
160,Andenes,NO,69.3143,16.1194,24.93,68,75,26.46,broken clouds
161,Nakamura,JP,32.9833,132.9333,60.67,61,100,1.59,overcast clouds
162,Cartagena,CO,10.3997,-75.5144,80.22,83,75,11.5,broken clouds
163,Pevek,RU,69.7008,170.3133,-7.51,93,24,7.45,few clouds
164,Naantali,FI,60.4674,22.0243,43.11,87,0,9.22,clear sky
165,Souillac,MU,-20.5167,57.5167,75.58,94,40,3.44,scattered clouds
166,Lakatoro,VU,-16.0999,167.4164,83.88,76,100,3.47,overcast clouds
167,Kavaratti,IN,10.5669,72.642,82.65,75,55,6.64,broken clouds
168,Fort Nelson,CA,58.8053,-122.7002,35.19,51,75,0.0,broken clouds
169,Bahia Honda,CU,22.9036,-83.1592,69.57,58,0,9.62,clear sky
170,Marilandia,BR,-19.4128,-40.5417,72.81,95,5,2.21,clear sky
171,Ilulissat,GL,69.2167,-51.1,20.19,63,66,9.75,broken clouds
172,Riyadh,SA,24.6877,46.7219,57.34,28,0,7.47,clear sky
173,Cap Malheureux,MU,-19.9842,57.6142,75.47,85,1,1.01,clear sky
174,Emerald,AU,-23.5333,148.1667,78.35,69,0,5.75,clear sky
175,Ocampo,MX,21.65,-101.5,64.2,18,4,5.79,clear sky
176,Hami,CN,42.8,93.45,48.4,38,100,14.5,overcast clouds
177,Tura,IN,25.5198,90.2201,72.93,51,0,3.27,clear sky
178,Tuktoyaktuk,CA,69.4541,-133.0374,-5.8,65,0,9.22,clear sky
179,Longyearbyen,SJ,78.2186,15.6401,4.84,72,88,17.27,overcast clouds
180,Sayyan,YE,15.1718,44.3244,49.6,28,28,6.8,scattered clouds
181,Rocha,UY,-34.4833,-54.3333,61.45,55,0,5.28,clear sky
182,Belyy Yar,RU,53.6039,91.3903,9.86,70,0,2.24,clear sky
183,Coihaique,CL,-45.5752,-72.0662,48.15,87,75,10.36,light rain
184,Naze,JP,28.3667,129.4833,59.92,61,96,17.31,overcast clouds
185,Lata,PT,40.1629,-8.3327,56.07,60,100,8.81,overcast clouds
186,Jagdalpur,IN,19.0667,82.0333,70.56,21,54,1.12,broken clouds
187,Khani,GE,41.9563,42.9566,26.17,97,100,3.71,light snow
188,Luderitz,NA,-26.6481,15.1594,63.12,72,0,4.32,clear sky
189,Portland,US,45.5234,-122.6762,68.83,60,100,0.0,overcast clouds
190,Louviers,FR,49.2167,1.1667,52.61,75,13,4.61,few clouds
191,Korla,CN,41.7597,86.1469,47.53,21,62,9.57,broken clouds
192,Launceston,AU,-41.45,147.1667,66.79,83,100,8.05,overcast clouds
193,Atikokan,CA,48.7555,-91.6216,8.53,92,100,3.65,overcast clouds
194,Aguie,NE,13.506,7.7786,69.85,10,1,10.51,clear sky
195,Bullhead City,US,35.1478,-114.5683,92.62,7,40,20.71,scattered clouds
196,Edson,CA,53.5835,-116.4356,35.74,87,100,8.05,overcast clouds
197,Treinta Y Tres,UY,-33.2333,-54.3833,61.25,69,0,6.85,clear sky
198,Helong,CN,42.5397,128.9972,38.95,54,0,8.9,clear sky
199,Jinchang,CN,38.4953,102.1739,51.55,17,99,2.21,overcast clouds
200,Damietta,EG,31.4165,31.8133,56.64,72,0,8.5,clear sky
201,Nikolsk,RU,53.7189,46.0712,20.23,89,100,15.03,overcast clouds
202,Vestmannaeyjar,IS,63.4427,-20.2734,41.99,87,100,33.38,overcast clouds
203,Camacha,PT,33.0833,-16.3333,56.62,82,20,6.91,few clouds
204,Namatanai,PG,-3.6667,152.4333,83.8,74,80,7.99,light rain
205,Enumclaw,US,47.2043,-121.9915,65.43,65,100,5.01,overcast clouds
206,Puerto Quijarro,BO,-17.7833,-57.7667,73.78,79,16,0.92,few clouds
207,San Policarpo,PH,12.1791,125.5072,81.48,85,34,13.44,scattered clouds
208,Matara,LK,5.9485,80.5353,76.64,89,5,5.41,clear sky
209,Kahului,US,20.8947,-156.47,84.22,54,40,18.41,scattered clouds
210,Coquimbo,CL,-29.9533,-71.3436,62.87,81,4,3.29,clear sky
211,Atar,MR,20.5169,-13.0499,73.22,19,100,3.94,overcast clouds
212,New Norfolk,AU,-42.7826,147.0587,63.9,74,100,2.48,light rain
213,San Isidro,PE,-12.1167,-77.05,71.19,73,0,8.05,clear sky
214,Phan Thiet,VN,10.9333,108.1,82.92,65,93,4.5,overcast clouds
215,Zhigalovo,RU,54.8097,105.1578,12.24,90,96,4.32,overcast clouds
216,Liverpool,GB,53.4106,-2.9779,54.28,78,100,4.61,overcast clouds
217,Sanski Most,BA,44.7653,16.6656,48.51,66,0,3.33,clear sky
218,Coahuayana,MX,18.7333,-103.6833,74.37,61,0,3.62,clear sky
219,Yulara,AU,-25.2406,130.9889,78.64,17,90,8.05,overcast clouds
220,Port Lincoln,AU,-34.7333,135.8667,69.78,69,2,8.66,clear sky
221,Amealco,MX,20.1833,-100.15,71.67,16,0,4.97,clear sky
222,Marmaris,TR,36.855,28.2742,60.12,50,6,5.28,clear sky
223,Chilca,PE,-12.5211,-76.7372,69.82,86,98,7.31,overcast clouds
224,Palmer,US,42.1584,-72.3287,34.41,54,100,18.41,overcast clouds
225,Torbay,CA,47.6666,-52.7314,40.28,91,100,23.02,overcast clouds
226,Alpena,US,45.0617,-83.4327,18.18,55,40,12.66,scattered clouds
227,East London,ZA,-33.0153,27.9116,69.87,83,100,17.31,overcast clouds
228,Palomares,MX,17.15,-95.0667,69.35,78,16,6.62,few clouds
229,Namibe,AO,-15.1961,12.1522,71.83,68,98,10.96,overcast clouds
230,Glendive,US,47.1053,-104.7125,58.62,25,0,11.5,clear sky
231,Dingle,PH,10.9995,122.6711,84.49,68,27,11.56,scattered clouds
232,Pangai,TO,-19.8,-174.35,84.31,79,75,5.75,broken clouds
233,Tautira,PF,-17.7333,-149.15,81.77,74,97,14.12,light rain
234,Saint-Augustin,CA,51.226,-58.6502,33.78,98,100,15.86,overcast clouds
235,Bam,IR,29.106,58.357,60.62,14,0,2.55,clear sky
236,Bousse,BF,12.6606,-1.8922,83.14,13,12,7.63,few clouds
237,Nikolskoye,RU,59.7035,30.7861,22.91,93,100,11.99,light snow
238,Pingliang,CN,35.5392,106.6861,43.9,64,98,7.25,overcast clouds
239,Marau,BR,-28.4492,-52.2,57.42,91,0,1.68,clear sky
240,Pontivy,FR,48.0,-3.0,52.29,85,66,6.22,broken clouds
241,Neyshabur,IR,36.2133,58.7958,48.04,33,0,0.56,clear sky
242,Erzin,TR,36.9559,36.2,44.69,65,0,2.15,clear sky
243,Krasnoselkup,RU,65.7,82.4667,1.98,100,100,8.25,overcast clouds
244,Nicoya,CR,10.1483,-85.452,81.93,53,100,9.6,overcast clouds
245,Hendek,TR,40.7994,30.7481,44.96,72,88,4.83,overcast clouds
246,Ahipara,NZ,-35.1667,173.1667,71.35,56,0,7.2,clear sky
247,Georgetown,MY,5.4112,100.3354,80.53,93,20,3.44,thunderstorm
248,Zeya,RU,53.75,127.2667,26.71,62,98,7.85,overcast clouds
249,Manokwari,ID,-0.8667,134.0833,82.99,70,86,3.62,overcast clouds
250,Zhangjiakou,CN,40.81,114.8794,42.01,29,0,4.68,clear sky
251,Qui Nhon,VN,13.7667,109.2333,80.19,82,100,9.37,overcast clouds
252,Calabozo,VE,8.9242,-67.4293,87.85,41,99,3.8,overcast clouds
253,Lunglei,IN,22.8833,92.7333,63.05,93,99,2.86,overcast clouds
254,Marechal Candido Rondon,BR,-24.5561,-54.0567,66.27,78,0,2.98,clear sky
255,Dongning,CN,44.0622,131.1207,44.15,33,0,12.88,clear sky
256,Portsmouth,GB,50.799,-1.0913,44.19,92,0,1.01,clear sky
257,Eyl,SO,7.9803,49.8164,73.98,77,49,9.57,scattered clouds
258,Careiro Da Varzea,BR,-3.2003,-59.8119,79.41,94,100,2.3,overcast clouds
259,Amuntai,ID,-2.4177,115.2494,80.53,81,100,0.85,moderate rain
260,Bella Vista,US,36.4295,-94.2316,61.32,32,0,12.66,clear sky
261,Djambala,CG,-2.5447,14.7533,69.67,88,100,3.78,overcast clouds
262,Cabo San Lucas,MX,22.8909,-109.9124,85.3,21,40,0.0,scattered clouds
263,Locri,IT,38.2414,16.2623,57.33,92,100,10.74,overcast clouds
264,Solnechnyy,RU,50.7214,136.6319,25.7,65,29,1.28,scattered clouds
265,Lompoc,US,34.6391,-120.4579,62.53,73,100,32.99,overcast clouds
266,Rosa Zarate,EC,0.3333,-79.4667,74.88,93,100,0.76,light rain
267,Ulladulla,AU,-35.35,150.4667,73.76,94,100,6.89,overcast clouds
268,Kosh-Agach,RU,50.0,88.6667,7.93,90,100,3.67,overcast clouds
269,Piacabucu,BR,-10.4056,-36.4344,78.93,82,54,8.63,broken clouds
270,Eenhana,NA,-17.4667,16.3333,65.19,47,20,4.79,few clouds
271,Lewistown,US,40.5992,-77.5714,28.17,70,0,18.41,clear sky
272,Bar Harbor,US,44.3876,-68.2039,41.65,77,100,4.61,overcast clouds
273,Ostrovnoy,RU,68.0531,39.5131,19.87,74,100,7.94,light snow
274,Camocim,BR,-2.9022,-40.8411,76.96,91,100,8.84,overcast clouds
275,Bambous Virieux,MU,-20.3428,57.7575,75.45,94,40,3.44,scattered clouds
276,Aviles,ES,43.5547,-5.9248,58.17,80,0,4.61,clear sky
277,Shimoda,JP,34.6667,138.95,59.36,61,94,3.96,overcast clouds
278,Thinadhoo,MV,0.5333,72.9333,81.32,63,10,5.08,clear sky
279,Riberalta,BO,-10.9833,-66.1,72.64,95,100,2.46,overcast clouds
280,Smithers,CA,54.7804,-127.1743,48.52,46,40,2.3,scattered clouds
281,Yasnyy,RU,51.0333,59.8742,31.41,87,100,20.83,overcast clouds
282,Mont-Dore,NC,-22.2833,166.5833,85.98,99,85,12.33,overcast clouds
283,Avera,US,33.194,-82.5271,60.31,45,7,7.67,clear sky
284,Omboue,GA,-1.5746,9.2618,77.9,92,100,6.82,moderate rain
285,Ornskoldsvik,SE,63.2909,18.7153,38.35,87,40,11.5,scattered clouds
286,Baykit,RU,61.67,96.37,5.23,96,85,4.32,overcast clouds
287,Sfantu Gheorghe,RO,45.8667,25.7833,36.93,64,5,1.97,clear sky
288,Sobolevo,RU,54.4299,31.8996,23.45,75,100,7.72,overcast clouds
289,Ciudad Bolivar,VE,8.1222,-63.5497,84.69,55,99,14.63,overcast clouds
290,San Cristobal,VE,7.7669,-72.225,71.78,89,99,2.33,overcast clouds
291,Marmande,FR,44.5,0.1667,44.91,64,3,5.19,clear sky
292,San Patricio,US,28.017,-97.5169,75.18,69,3,14.92,clear sky
293,Birao,CF,10.2849,22.7882,75.88,10,16,11.27,few clouds
294,Lazaro Cardenas,MX,17.9583,-102.2,76.84,57,10,7.63,clear sky
295,Marrakesh,MA,31.6315,-8.0083,64.47,59,0,9.22,clear sky
296,Mobile,US,30.7835,-88.2,69.15,68,20,9.22,few clouds
297,Krasnoshchekovo,RU,51.6708,82.7289,33.51,98,100,12.75,light snow
298,Isla Mujeres,MX,21.2311,-86.731,77.16,59,0,15.32,clear sky
299,Belinskiy,RU,52.9647,43.4165,20.08,85,99,17.16,overcast clouds
300,Mayumba,GA,-3.432,10.6554,78.91,88,98,3.74,light rain
301,Dryden,CA,49.7833,-92.7503,16.09,24,0,5.75,clear sky
302,Ichnya,UA,50.8626,32.3942,28.69,48,95,9.48,overcast clouds
303,Hofn,IS,64.2539,-15.2082,32.18,78,100,6.89,overcast clouds
304,Talgar,KZ,43.3027,77.2395,37.56,93,75,0.0,broken clouds
305,Kholm,RU,59.2667,32.85,19.63,87,100,8.25,overcast clouds
306,Taoudenni,ML,22.6783,-3.9836,85.62,28,5,6.87,clear sky
307,Derzhavinsk,KZ,51.1,66.3167,12.09,96,74,10.49,broken clouds
308,Ranong,TH,9.9658,98.6348,75.13,81,90,3.13,overcast clouds
309,Kalabo,ZM,-14.97,22.6814,67.62,83,100,1.01,overcast clouds
310,Waipawa,NZ,-41.4122,175.5153,57.24,75,95,8.16,overcast clouds
311,Shache,CN,38.4167,77.2406,48.88,26,14,7.83,few clouds
312,Iki-Burul,RU,45.8208,44.6472,30.54,82,100,17.98,light snow
313,Karratha,AU,-20.7377,116.8463,82.99,67,80,6.53,broken clouds
314,Natitingou,BJ,10.3042,1.3796,79.56,14,0,4.83,clear sky
315,Flagstaff,US,35.1981,-111.6513,64.06,12,0,13.8,clear sky
316,Aquin,HT,18.2833,-73.4,77.38,73,38,11.32,scattered clouds
317,Lerwick,GB,60.1545,-1.1494,46.4,86,30,16.49,scattered clouds
318,Maniitsoq,GL,65.4167,-52.9,24.24,73,100,8.16,overcast clouds
319,Srikakulam,IN,18.3,83.9,78.91,90,93,5.28,overcast clouds
320,Grand Gaube,MU,-20.0064,57.6608,75.6,85,2,1.01,clear sky
321,Bima,ID,-8.4667,118.7167,83.55,77,60,0.4,broken clouds
322,Te Anau,NZ,-45.4167,167.7167,73.17,44,1,2.28,clear sky
323,Geraldton,AU,-28.7667,114.6,75.61,78,75,9.22,broken clouds
324,Veraval,IN,20.9,70.3667,78.21,55,4,10.47,clear sky
325,Kikwit,CD,-5.041,18.8162,73.27,91,100,1.14,light rain
326,Iqaluit,CA,63.7506,-68.5145,16.7,92,100,5.75,fog
327,Panaba,MX,21.2833,-88.2667,73.22,57,0,16.42,clear sky
328,Auki,SB,-8.7676,160.7034,83.32,77,100,5.32,overcast clouds
329,Laramie,US,41.3114,-105.5911,62.98,11,0,19.57,clear sky
330,Mombetsu,JP,44.3525,143.3525,37.42,81,75,11.5,broken clouds
331,Minab,IR,27.1467,57.0801,71.06,72,9,8.16,clear sky
332,Jelgava,LV,56.65,23.7128,37.44,80,7,12.91,clear sky
333,Williams Lake,CA,52.1415,-122.1445,40.57,93,100,6.91,mist
334,Pandamatenga,BW,-18.5278,25.627,65.34,90,7,8.79,clear sky
335,Los Lunas,US,34.8062,-106.7334,80.46,9,91,1.01,overcast clouds
336,Qrendi,MT,35.8347,14.4583,57.11,88,0,5.75,clear sky
337,Acarau,BR,-2.8856,-40.12,78.28,88,87,8.39,overcast clouds
338,Salalah,OM,17.0151,54.0924,75.29,50,0,4.61,clear sky
339,Evensk,RU,61.95,159.2333,14.94,76,100,25.7,overcast clouds
340,Suaza,CO,1.9761,-75.7945,67.23,99,100,2.77,overcast clouds
341,Nouadhibou,MR,20.931,-17.0347,64.38,94,100,3.44,overcast clouds
342,Arlit,NE,18.7369,7.3853,73.36,6,0,5.06,clear sky
343,Great Yarmouth,GB,52.6083,1.7305,41.41,96,6,7.07,clear sky
344,Santa Maria,BR,-29.6842,-53.8069,63.7,88,0,2.3,clear sky
345,Pacific Grove,US,36.6177,-121.9166,64.58,61,0,24.16,clear sky
346,Cheremukhovo,RU,60.3484,59.9851,29.41,95,100,9.62,overcast clouds
347,Changli,CN,39.7042,119.1506,49.62,32,0,10.4,clear sky
348,Saint George,US,37.1041,-113.5841,82.99,9,0,13.8,clear sky
349,Dauriya,RU,49.9333,116.8667,34.12,40,92,10.51,overcast clouds
350,Prieska,ZA,-29.6641,22.7474,73.02,39,4,6.11,clear sky
351,Haysville,US,37.5645,-97.3523,55.72,39,0,16.11,clear sky
352,Baruun-Urt,MN,46.6806,113.2792,36.48,25,98,3.31,overcast clouds
353,Waingapu,ID,-9.6567,120.2641,82.44,72,99,1.34,overcast clouds
354,Humaita,BR,-7.5061,-63.0208,74.01,96,99,2.53,very heavy rain
355,Suda,RU,59.1525,37.5582,13.82,96,52,7.02,broken clouds
356,Shubarkuduk,KZ,49.1447,56.4872,34.27,99,100,21.41,light snow
357,Poum,NC,-20.2333,164.0167,81.79,73,25,20.36,scattered clouds
358,Labuhan,ID,-6.8844,112.2051,80.33,81,95,4.94,light rain
359,Seminole,US,28.7086,-81.2081,73.76,38,0,12.66,clear sky
360,Savannah Bight,HN,16.45,-85.85,77.29,78,48,7.67,scattered clouds
361,Patiya,BD,22.2931,91.9762,73.74,93,56,2.19,broken clouds
362,Sinnamary,GF,5.3833,-52.95,77.65,86,100,13.27,overcast clouds
363,Koundara,GN,12.4833,-13.3,85.14,16,98,6.46,overcast clouds
364,Bonavista,CA,48.6499,-53.1147,33.44,95,100,25.86,snow
365,Moen,NO,69.1304,18.6123,24.87,63,40,14.97,scattered clouds
366,Kiruna,SE,67.8557,20.2251,13.12,92,100,8.05,overcast clouds
367,Puerto Narino,CO,-3.7703,-70.3831,72.07,99,100,1.72,overcast clouds
368,Prince Albert,CA,53.2001,-105.7677,22.95,74,40,13.8,scattered clouds
369,Bara,NG,10.3744,10.7288,74.8,12,12,10.92,few clouds
370,Pacasmayo,PE,-7.4006,-79.5714,72.48,73,100,8.39,overcast clouds
371,Villazon,BO,-22.0866,-65.5942,54.75,51,0,8.9,clear sky
372,Mangaratiba,BR,-22.9597,-44.0406,76.06,90,87,0.63,overcast clouds
373,Palu,ID,-0.8917,119.8707,83.97,66,100,1.7,moderate rain
374,Lakes Entrance,AU,-37.8811,147.981,76.15,52,100,2.77,overcast clouds
375,Tadine,NC,-21.55,167.8833,79.63,69,80,14.74,broken clouds
376,Sambava,MG,-14.2667,50.1667,75.34,89,94,4.68,overcast clouds
377,Pinawa,CA,50.1489,-95.8811,10.83,81,15,2.93,few clouds
378,Balabac,PH,7.9868,117.0645,80.2,78,100,5.14,overcast clouds
379,Kharp,RU,66.8014,65.8081,15.35,96,100,8.63,snow
380,Princeton,US,25.5384,-80.4089,73.42,57,0,8.05,clear sky
381,Stornoway,GB,58.2093,-6.3865,44.92,87,8,0.0,haze
382,Kaseda,JP,31.4167,130.3167,58.17,64,100,10.94,overcast clouds
383,Simbahan,PH,6.3032,120.5836,82.15,72,59,2.42,broken clouds
384,Petropavlovsk-Kamchatskiy,RU,53.0452,158.6483,34.39,87,75,8.95,light shower snow
385,Kurumkan,RU,54.3,110.3,14.68,76,45,3.65,scattered clouds
386,Jaynagar-Majilpur,IN,22.1758,88.4178,78.57,91,17,11.1,few clouds
387,Komsomolskiy,UZ,40.4272,71.7189,41.72,75,4,4.61,clear sky
388,Xinzhi,CN,36.4989,111.7047,52.21,34,0,4.56,clear sky
389,Watertown,US,42.3709,-71.1828,41.34,53,100,13.8,overcast clouds
390,Luganville,VU,-15.5333,167.1667,83.66,81,100,4.65,moderate rain
391,Camapua,BR,-19.5314,-54.0439,73.36,87,17,3.29,few clouds
392,Zyryanka,RU,65.75,150.85,8.22,87,68,7.25,broken clouds
393,Kalmunai,LK,7.4167,81.8167,78.51,84,8,2.66,clear sky
394,Hamilton,US,39.1834,-84.5333,35.24,55,0,11.5,clear sky
395,Providencia,MX,28.7167,-111.5833,85.21,30,100,7.38,overcast clouds
396,Mackay,AU,-21.15,149.2,86.68,65,2,8.05,clear sky
397,Kathu,TH,7.9178,98.3332,86.7,99,47,5.66,scattered clouds
398,Nueve De Julio,AR,-35.4444,-60.8831,62.28,59,0,1.54,clear sky
399,Wasilla,US,61.5814,-149.4394,40.64,50,20,18.41,few clouds
400,Clyde River,CA,70.4692,-68.5914,-7.37,77,40,5.75,scattered clouds
401,Shirokiy,RU,49.758,129.523,28.04,84,72,6.49,broken clouds
402,Dzilam Gonzalez,MX,21.2833,-88.9333,74.17,57,0,12.88,clear sky
403,De-Kastri,RU,51.4667,140.7833,21.74,74,100,17.65,overcast clouds
404,Goderich,CA,43.7501,-81.7165,23.92,58,100,21.85,overcast clouds
405,Kieta,PG,-6.2167,155.6333,85.35,70,34,7.25,light rain
406,Saryozek,KZ,44.3583,77.9753,33.15,85,100,5.21,overcast clouds
407,Maravatio,MX,19.9,-100.45,64.78,21,3,3.31,clear sky
408,Jalu,LY,29.0331,21.5482,59.45,19,0,9.64,clear sky
409,Araouane,ML,18.9048,-3.5265,83.32,15,100,11.18,overcast clouds
410,Oussouye,SN,12.485,-16.5469,69.98,66,100,10.16,overcast clouds
411,Half Moon Bay,US,37.4636,-122.4286,65.57,63,75,14.97,broken clouds
412,Poya,NC,-21.35,165.15,83.88,63,38,5.46,scattered clouds
413,Tessalit,ML,20.1986,1.0114,79.83,9,52,9.55,broken clouds
414,Mari-Turek,RU,56.7895,49.6235,18.1,88,100,12.75,overcast clouds
415,Beira,MZ,-19.8436,34.8389,77.09,94,75,7.0,broken clouds
416,Boa Vista,BR,2.8197,-60.6733,84.18,61,40,12.66,scattered clouds
417,Pozo Colorado,PY,-23.4923,-58.7972,70.21,54,0,5.06,clear sky
418,College,US,64.8569,-147.8028,40.95,54,40,3.44,scattered clouds
419,Sao Joao Da Barra,BR,-21.6403,-41.0511,77.11,91,3,3.78,clear sky
420,Olafsvik,IS,64.8945,-23.7142,33.96,75,100,20.62,overcast clouds
421,Daru,PG,-9.0763,143.2092,78.22,90,100,4.56,overcast clouds
422,Goba,ET,7.0167,39.9833,47.07,64,26,4.56,scattered clouds
423,Forio,IT,40.7342,13.8646,53.1,69,100,17.54,overcast clouds
424,Mangai,CD,-4.05,19.5333,71.44,99,100,1.1,light rain
425,Lazarev,RU,52.225,141.5131,20.1,68,34,18.61,scattered clouds
426,Lisakovsk,KZ,52.5369,62.4936,25.29,89,100,15.84,overcast clouds
427,Apache Junction,US,33.4151,-111.5496,91.06,7,0,16.11,clear sky
428,Saint-Louis,SN,16.3333,-15.0,74.84,44,62,14.12,broken clouds
429,Oranjemund,NA,-28.55,16.4333,62.85,66,0,3.74,clear sky
430,Yar-Sale,RU,66.8333,70.8333,13.23,93,100,15.41,overcast clouds
431,Conakry,GN,9.538,-13.6773,80.67,65,17,4.61,haze
432,Areosa,PT,41.7178,-8.8571,56.68,76,100,5.26,overcast clouds
433,Batagay-Alyta,RU,67.8006,130.4114,4.51,76,95,3.22,overcast clouds
434,Constitucion,CL,-35.3333,-72.4167,55.26,82,100,13.04,overcast clouds
435,Beatrice,US,40.2681,-96.747,43.18,30,0,6.91,clear sky
436,Chicama,PE,-7.8447,-79.1469,66.74,68,89,5.68,overcast clouds
437,Henties Bay,NA,-22.116,14.2845,64.29,91,8,6.69,clear sky
438,Pedernales,DO,18.0384,-71.744,77.02,78,75,1.83,broken clouds
439,Mount Isa,AU,-20.7333,139.5,87.57,20,6,11.5,clear sky
440,Laguna,US,38.421,-121.4238,67.01,58,0,10.36,clear sky
441,Nyurba,RU,63.2842,118.3319,10.98,96,100,4.43,overcast clouds
442,Hay River,CA,60.8156,-115.7999,3.18,72,75,9.22,broken clouds
443,Nizhnevartovsk,RU,60.9344,76.5531,10.42,56,0,7.0,clear sky
444,Sola,VU,-13.8833,167.55,88.47,74,100,2.3,overcast clouds
445,Tabou,CI,4.423,-7.3528,80.08,90,68,5.01,broken clouds
446,Lethem,GY,3.3803,-59.7968,78.46,77,89,10.02,overcast clouds
447,Flin Flon,CA,54.7682,-101.865,15.13,82,100,8.08,overcast clouds
448,Mumford,GH,5.2618,-0.759,80.71,88,58,7.34,broken clouds
449,Ulety,RU,51.3572,112.4849,23.94,62,57,11.41,broken clouds
450,The Valley,AI,18.217,-63.0578,77.09,77,80,11.81,broken clouds
451,Faanui,PF,-16.4833,-151.75,82.67,70,95,12.46,light rain
452,Dayong,CN,25.0209,118.2898,57.54,75,100,3.13,overcast clouds
453,Klaksvik,FO,62.2266,-6.589,40.12,80,100,16.42,overcast clouds
454,Makokou,GA,0.5738,12.8642,73.31,81,97,4.0,overcast clouds
455,Togur,RU,58.3631,82.8265,-2.4,100,90,4.72,overcast clouds
456,Buala,SB,-8.145,159.5921,82.94,78,100,7.76,light rain
457,Wolgast,DE,54.05,13.7667,42.85,86,42,11.5,scattered clouds
458,Nokaneng,BW,-19.6667,22.2667,70.84,65,48,9.22,scattered clouds
459,Bundaberg,AU,-24.85,152.35,81.21,74,7,9.22,clear sky
460,Ilam,NP,26.9167,87.9167,64.06,31,0,5.1,clear sky
461,Elko,US,41.0002,-115.5012,71.62,10,100,20.0,overcast clouds
462,Belmonte,BR,-15.8631,-38.8828,77.63,79,84,5.99,broken clouds
463,Ayagoz,KZ,47.9714,80.4392,29.16,93,100,12.08,overcast clouds
464,Tyrma,RU,50.0833,132.1667,27.99,74,83,4.38,broken clouds
465,Orange Walk,BZ,17.8333,-88.8333,71.58,84,38,4.0,scattered clouds
466,Santa Barbara,US,34.7333,-120.0343,53.73,83,40,24.16,scattered clouds
467,Ancud,CL,-41.8697,-73.8203,54.23,82,61,15.46,broken clouds
468,Pechora,RU,65.1472,57.2244,22.46,97,100,4.43,light snow
469,Soyo,AO,-6.1349,12.3689,80.13,91,100,10.04,overcast clouds
470,Kefamenanu,ID,-9.4467,124.4781,79.74,71,73,1.41,broken clouds
471,Kruisfontein,ZA,-34.0033,24.7314,61.88,65,9,6.93,clear sky
472,North Myrtle Beach,US,33.816,-78.68,60.85,41,0,0.0,clear sky
473,Kailua,US,21.4022,-157.7394,80.74,70,1,5.01,clear sky
474,Malatya,TR,38.5,38.0,26.65,74,0,4.61,clear sky
475,Caraballeda,VE,10.6112,-66.8522,77.52,88,68,9.8,broken clouds
476,Yuza,JP,39.0,139.9167,48.25,54,26,20.36,scattered clouds
477,Thunder Bay,CA,48.4001,-89.3168,17.58,29,0,13.8,clear sky
478,Hereford,GB,52.0568,-2.7148,47.75,92,7,0.58,clear sky
479,Skjervoy,NO,70.0311,20.9714,21.2,69,100,22.21,overcast clouds
480,Kondinskoye,RU,59.6481,67.41,15.75,91,100,14.88,overcast clouds
481,Comodoro Rivadavia,AR,-45.8667,-67.5,62.46,34,0,14.97,dust
482,Ilva Mica,RO,47.3167,24.6667,32.74,69,8,2.93,clear sky
483,Mabaruma,GY,8.2,-59.7833,73.27,88,100,3.85,overcast clouds
484,Saldanha,ZA,-33.0117,17.9442,62.17,76,13,8.12,few clouds
485,Harper,LR,4.375,-7.7169,80.06,89,37,5.19,scattered clouds
486,Nobres,BR,-14.7203,-56.3275,75.2,90,100,0.85,light rain
487,Cabedelo,BR,-6.9811,-34.8339,79.47,84,100,9.44,overcast clouds
488,Wuwei,CN,37.9281,102.6414,52.32,20,100,2.59,overcast clouds
489,Channel-Port Aux Basques,CA,47.5702,-59.1367,34.68,98,100,7.43,overcast clouds
490,Pisco,PE,-13.7,-76.2167,69.85,78,0,14.97,clear sky
491,Severo-Yeniseyskiy,RU,60.3725,93.0408,4.51,100,100,3.24,overcast clouds
492,Vaitape,PF,-16.5167,-151.75,82.67,70,99,12.57,light rain
493,Puerto Madryn,AR,-42.7692,-65.0385,62.67,52,0,11.92,clear sky
494,Diamantina,BR,-18.2494,-43.6003,65.23,83,19,4.07,few clouds
495,San Quintin,MX,30.4833,-115.95,61.02,73,100,3.8,overcast clouds
496,Tanout,NE,14.9709,8.8879,68.07,10,0,12.21,clear sky
497,Ukiah,US,39.1502,-123.2078,58.44,73,75,13.8,broken clouds
498,Klatovy,CZ,49.3955,13.2951,50.05,88,0,2.06,clear sky
499,Itaqui,BR,-29.1253,-56.5531,66.92,67,0,4.7,clear sky
500,Moussoro,TD,13.6408,16.4901,71.56,6,27,16.78,scattered clouds
501,Vao,NC,-22.6667,167.4833,77.05,66,7,15.99,clear sky
502,Pampa,US,35.5362,-100.9599,70.75,41,0,14.97,clear sky
503,Dubbo,AU,-32.25,148.6167,73.53,68,40,5.75,scattered clouds
504,Key West,US,24.5557,-81.7826,77.0,51,0,4.61,clear sky
505,Port Blair,IN,11.6667,92.75,78.84,89,40,2.3,mist
506,Codrington,AU,-38.2667,141.9667,67.87,62,1,11.65,clear sky
507,Khorixas,NA,-20.3667,14.9667,68.23,68,13,1.81,few clouds
508,Talnakh,RU,69.4865,88.3972,4.57,97,96,5.1,overcast clouds
509,Paita,PE,-5.0892,-81.1144,73.29,76,100,9.24,overcast clouds
510,Mogadishu,SO,2.0371,45.3438,80.15,69,78,14.52,broken clouds
511,Aras,ES,42.5617,-2.356,45.03,81,0,1.14,clear sky
512,Bintulu,MY,3.1667,113.0333,75.61,88,20,3.44,few clouds
513,Kulhudhuffushi,MV,6.6221,73.07,82.27,67,22,3.98,few clouds
514,Moryakovskiy Zaton,RU,56.6956,84.6467,18.48,92,6,6.06,clear sky
515,Anahuac,MX,27.2333,-100.15,80.74,20,100,15.14,overcast clouds
516,Qesarya,IL,32.5189,34.9046,49.35,77,0,5.95,clear sky
517,Moyale,KE,3.5167,39.0584,70.65,64,11,4.83,few clouds
518,North Bend,US,43.4065,-124.2243,58.15,91,40,4.61,scattered clouds
519,Puksoozero,RU,62.5903,40.6066,7.39,99,99,4.79,overcast clouds
520,Borskoye,RU,53.0333,51.7167,22.98,96,97,9.44,overcast clouds
521,Puerto Escondido,MX,15.85,-97.0667,79.41,74,100,1.54,overcast clouds
522,Katherine,AU,-14.4667,132.2667,86.32,58,75,4.61,broken clouds
523,Bilma,NE,18.6853,12.9164,68.99,11,0,7.83,clear sky
524,Port Hardy,CA,50.6996,-127.4199,48.38,93,100,8.05,light rain
525,Huarmey,PE,-10.0681,-78.1522,72.43,78,100,7.52,overcast clouds
526,Tlayacapan,MX,18.9333,-98.9833,84.85,26,18,1.1,few clouds
527,Giresun,TR,40.5,38.5,13.71,97,100,3.11,light snow
528,Karaton,ID,-6.3424,106.1045,79.14,85,100,1.05,overcast clouds
529,Kikuyu,KE,-1.2458,36.6633,60.67,88,75,6.91,broken clouds
530,Vagur,FO,61.4732,-6.8119,41.99,88,100,15.1,overcast clouds
531,Chengde,CN,40.9725,117.9361,43.34,26,71,2.19,broken clouds
532,Azovo,RU,54.6997,73.0237,10.15,100,100,4.0,overcast clouds
533,Suntar,RU,62.1444,117.6319,15.89,95,100,4.36,overcast clouds
534,Berdigestyakh,RU,62.0989,126.6992,19.02,90,100,8.12,overcast clouds
535,Inta,RU,66.0317,60.1659,22.1,80,100,11.79,overcast clouds
536,Yankton,US,42.8711,-97.3973,42.12,24,0,9.22,clear sky
537,Quatre Cocos,MU,-20.2078,57.7625,75.31,73,5,7.67,clear sky
538,Ponta Delgada,PT,37.7333,-25.6667,59.72,82,40,12.66,scattered clouds
539,Nortelandia,BR,-14.4547,-56.8028,75.13,90,100,1.54,overcast clouds
540,Ankang,CN,32.68,109.0172,57.34,55,4,4.21,clear sky
541,Kyshtovka,RU,56.555,76.6271,-3.05,100,71,3.87,broken clouds
542,Ternuvate,UA,47.8305,36.1276,28.44,51,40,10.65,scattered clouds
543,Ayni,TJ,39.3941,68.5377,35.89,58,0,6.82,clear sky
544,Raudeberg,NO,61.9875,5.1352,45.27,82,100,21.52,overcast clouds
545,Hirara,JP,24.8,125.2833,67.86,94,75,20.71,broken clouds
546,Winneba,GH,5.3511,-0.6231,80.33,88,52,6.93,broken clouds
547,Odweyne,SO,9.4092,45.064,68.92,22,53,13.15,broken clouds
548,Pouembout,NC,-21.1333,164.9,84.74,62,50,5.82,scattered clouds
549,Saint-Denis,FR,48.9167,2.3333,54.21,65,0,5.75,clear sky
550,Marzuq,YE,14.4,46.4667,62.28,27,8,3.06,clear sky
551,Bangangte,CM,5.1409,10.5198,63.64,66,100,2.33,overcast clouds
552,Port Hawkesbury,CA,45.6169,-61.3485,39.81,90,71,1.01,broken clouds
553,Honningsvag,NO,70.9821,25.9704,19.15,73,75,1.14,broken clouds
554,Villa Florida,PY,-26.3833,-57.15,66.04,80,0,4.7,clear sky
555,Kiama,AU,-34.6833,150.8667,75.99,88,100,10.0,overcast clouds
556,Baiyin,CN,36.5583,104.2081,45.9,39,100,2.59,overcast clouds
557,Meadow Lake,US,34.8014,-106.5436,78.28,10,98,7.58,overcast clouds
558,Kaeo,NZ,-35.1,173.7833,75.33,57,3,3.71,clear sky
559,Pokaran,IN,26.9167,71.9167,76.21,15,0,9.69,clear sky
560,Verkhnyaya Inta,RU,65.9811,60.3094,21.88,78,100,12.71,overcast clouds
561,Sorong,ID,-0.8833,131.25,80.98,82,68,2.24,broken clouds
562,Makaha,US,21.4694,-158.2175,80.65,68,100,6.91,light rain
563,Katangli,RU,51.7102,143.2326,19.02,79,100,23.82,overcast clouds
564,Berbera,SO,10.4396,45.0143,78.94,68,5,6.04,clear sky
565,Swellendam,ZA,-34.0226,20.4417,70.74,38,33,3.49,scattered clouds
566,Lalganj,IN,25.8667,85.1833,69.75,18,5,6.15,clear sky
567,Florida,US,28.7505,-82.5001,64.9,75,0,0.0,clear sky
568,Jalingo,NG,8.8833,11.3667,77.49,13,25,5.75,scattered clouds
569,Takoradi,GH,4.8845,-1.7554,80.2,87,100,6.42,overcast clouds
570,Paamiut,GL,61.994,-49.6678,24.71,83,69,7.87,broken clouds
571,Minna,NG,9.6139,6.5569,79.48,12,15,7.31,few clouds
572,Datong,CN,40.0936,113.2914,40.73,26,0,4.54,clear sky
573,Irsha,RU,55.9269,94.7911,5.0,97,61,2.3,broken clouds
574,Valdivia,CL,-39.8142,-73.2459,46.09,93,0,1.77,clear sky
575,Kayes,ML,14.0,-11.0,92.01,14,100,6.64,overcast clouds
576,Altopascio,IT,43.8157,10.6739,55.15,41,70,4.29,broken clouds
577,Buraydah,SA,26.326,43.975,57.65,26,0,9.33,clear sky
578,Ransang,PH,8.9603,117.5828,81.68,76,97,0.6,heavy intensity rain
579,Kisanga,TZ,-7.4362,37.7034,74.8,87,49,2.19,scattered clouds
580,Nyagan,RU,62.1406,65.3936,20.68,91,100,12.1,overcast clouds
581,Saint-Paul,RE,-21.0096,55.2707,78.91,86,18,4.25,few clouds
582,Amet,IN,25.3,73.9333,74.59,20,1,10.07,clear sky
583,Antalaha,MG,-14.9003,50.2788,74.19,90,19,4.27,few clouds
584,Dumai,ID,1.6833,101.45,81.21,84,15,2.75,few clouds
585,Port-Cartier,CA,50.0334,-66.8654,32.11,92,98,7.14,overcast clouds
586,Severnoye,RU,56.3491,78.3619,-1.12,99,47,4.54,scattered clouds
587,Altamont,US,42.2068,-121.7372,60.76,33,0,8.05,clear sky
588,Dunedin,NZ,-45.8742,170.5036,60.8,80,0,15.01,clear sky
589,Reidsville,US,36.3549,-79.6645,49.12,26,0,4.61,clear sky
590,Nishihara,JP,26.1842,127.7558,63.68,77,75,16.11,broken clouds
591,Dalvik,IS,65.9702,-18.5286,22.93,78,100,5.61,overcast clouds
592,Garowe,SO,8.4054,48.4845,69.46,56,100,5.32,overcast clouds
593,Cam Ranh,VN,11.9214,109.1591,82.36,74,20,4.61,few clouds
594,Buin,CL,-33.7333,-70.75,71.87,36,100,2.75,overcast clouds
595,Banisilan,PH,7.4908,124.7242,77.61,77,80,4.23,broken clouds
596,Amga,RU,60.8953,131.9608,20.05,82,89,4.52,overcast clouds
597,Marsaxlokk,MT,35.8419,14.5431,57.07,94,0,2.3,mist
598,Batsfjord,NO,70.6345,29.7185,15.58,92,100,4.61,light snow
599,Mastic Beach,US,40.7668,-72.8521,38.1,56,100,11.01,overcast clouds
600,Yeniseysk,RU,58.4497,92.1703,4.48,99,99,0.25,overcast clouds
601,Ibotirama,BR,-12.1853,-43.2206,78.46,53,97,2.62,overcast clouds
602,Bodden Town,KY,19.2833,-81.25,78.8,67,75,12.66,broken clouds
603,Kodinsk,RU,58.6881,99.1844,8.19,94,84,4.83,broken clouds
604,Porosozero,RU,62.7191,32.727,15.46,90,100,5.14,overcast clouds
605,Xining,CN,36.6167,101.7667,41.27,26,58,2.24,broken clouds
606,Los Llanos De Aridane,ES,28.6585,-17.9182,59.13,89,0,6.91,clear sky
607,Jiujiang,CN,29.7333,115.9833,59.94,61,60,7.2,broken clouds
608,Nioro,GM,13.35,-15.75,76.44,31,100,9.44,overcast clouds
609,Firozpur Jhirka,IN,27.8,76.95,74.79,13,0,1.86,clear sky
610,Santa Ana,US,33.7456,-117.8678,71.62,68,20,12.66,few clouds
611,Vila Velha,BR,-20.3297,-40.2925,78.94,87,0,10.36,clear sky
612,Arica,CL,-18.475,-70.3042,68.5,82,95,3.11,overcast clouds
613,Coos Bay,US,43.3665,-124.2179,58.23,91,40,4.61,scattered clouds
614,Fortuna,US,40.5982,-124.1573,61.92,69,100,10.36,overcast clouds
615,Senneterre,CA,48.3835,-77.2328,3.83,94,100,9.71,light snow
616,Manado,ID,1.487,124.8455,86.77,70,20,5.75,few clouds
617,Gizo,SB,-8.103,156.8419,83.46,74,100,4.9,light rain
618,Florence,IT,43.7667,11.25,55.4,42,0,4.61,clear sky
619,Rena,NO,61.1348,11.3641,36.82,62,100,12.8,overcast clouds
620,Umm Lajj,SA,25.0213,37.2685,77.2,25,100,22.82,overcast clouds
621,Castrillon,ES,43.3979,-6.7922,52.72,79,100,4.29,overcast clouds
622,Komsomolets,KZ,53.7453,62.0708,24.75,92,100,14.76,overcast clouds
623,Kawalu,ID,-7.3817,108.2082,75.25,91,100,3.11,overcast clouds
624,Touho,NC,-20.7833,165.2333,79.99,74,72,15.99,broken clouds
625,Abu Samrah,SY,35.3029,37.1841,42.31,72,0,4.72,clear sky
626,Emba,KZ,48.8264,58.1442,34.45,87,100,18.43,overcast clouds
627,Richards Bay,ZA,-28.783,32.0377,69.57,90,30,5.14,scattered clouds
628,Tagusao,PH,9.1924,117.8141,81.36,75,82,0.76,moderate rain
629,Sabha,LY,27.0377,14.4283,63.55,10,2,11.74,clear sky
630,Wattegama,LK,6.7989,81.4808,74.64,90,0,1.72,clear sky
631,Tiarei,PF,-17.5333,-149.3333,86.02,74,61,15.26,broken clouds
632,San Pedro,PH,14.35,121.0167,88.32,68,20,3.44,few clouds
633,Grindavik,IS,63.8424,-22.4338,43.27,87,100,13.8,overcast clouds
634,Cabinda,AO,-5.55,12.2,80.2,93,100,8.97,light rain
635,Samarai,PG,-10.6167,150.6667,84.22,71,38,2.15,scattered clouds
636,Ko Samui,TH,9.5357,99.9357,82.31,89,20,0.0,few clouds
637,Yancheng,CN,33.3856,120.1253,50.04,47,100,11.25,overcast clouds
638,Bembereke,BJ,10.2283,2.6634,79.63,13,3,5.26,clear sky
639,Tari,NG,12.4086,4.4914,79.5,11,0,13.85,clear sky
640,Egvekinot,RU,66.3167,-179.1667,5.52,85,9,0.94,clear sky
641,Ojuelos De Jalisco,MX,21.8667,-101.5833,65.55,17,10,4.0,clear sky
642,Petersburg,US,37.2279,-77.4019,45.01,36,0,0.0,clear sky
643,Kirakira,SB,-10.4544,161.9205,83.79,77,95,5.57,overcast clouds
644,Ojinaga,MX,29.5667,-104.4167,90.55,12,0,0.0,clear sky
645,Santa Rosa,PH,14.3122,121.1114,89.1,69,58,10.07,broken clouds
646,Price,US,39.5994,-110.8107,72.12,22,27,12.19,scattered clouds
647,Aden,YE,12.7794,45.0367,79.7,66,18,1.39,few clouds
648,Kenora,CA,49.8167,-94.4337,18.57,27,20,6.91,few clouds
649,Prince Rupert,CA,54.3161,-130.3201,50.09,66,0,19.57,clear sky
650,Semnan,IR,35.5729,53.3971,45.48,35,0,2.95,clear sky
651,Ngunguru,NZ,-35.6167,174.5,66.07,65,6,10.04,clear sky
652,Akdepe,TM,42.0551,59.3788,42.89,54,100,8.97,overcast clouds
653,Avdon,RU,54.6667,55.7167,33.12,86,100,11.18,light snow
654,Karasburg,NA,-28.0167,18.75,74.17,25,100,8.43,overcast clouds
655,Bacabal,BR,-4.2917,-44.7917,74.57,96,100,3.53,moderate rain
656,Nemuro,JP,43.3236,145.575,36.68,71,100,11.83,overcast clouds
657,Ewa Beach,US,21.3156,-158.0072,80.69,72,100,6.91,overcast clouds
658,Bulawayo,ZW,-20.15,28.5833,63.01,86,96,11.77,overcast clouds
659,Shibetsu,JP,43.659,145.132,41.7,56,40,11.5,scattered clouds
660,Minas,UY,-34.3759,-55.2377,59.68,62,0,3.76,clear sky
661,Mackenzie,CA,55.2999,-123.1698,43.02,49,0,6.91,clear sky
662,Taywarah,AF,33.35,64.4167,38.98,23,0,3.13,clear sky
663,San Bartolome De Tirajana,ES,27.9248,-15.5733,54.07,82,20,8.05,few clouds
664,Tutoia,BR,-2.7619,-42.2744,77.7,90,76,9.35,heavy intensity rain
665,Matamoros,MX,25.5333,-103.25,80.2,9,1,13.24,clear sky
666,Palana,RU,59.1167,159.9667,28.15,64,100,23.94,overcast clouds
667,Ginda,IN,30.6945,78.4932,54.23,20,41,7.83,scattered clouds
668,Namwala,ZM,-15.7504,26.4384,64.65,96,100,4.07,overcast clouds
669,Kununurra,AU,-15.7667,128.7333,87.78,70,98,3.44,overcast clouds
670,San Rafael,AR,-34.6177,-68.3301,70.11,27,15,5.68,few clouds
671,Santana Do Mundau,BR,-9.1681,-36.2222,72.93,97,99,3.29,overcast clouds
672,Cockburn Town,TC,21.4612,-71.1419,76.69,67,35,17.87,scattered clouds
673,Velka Bites,CZ,49.2884,16.2274,44.83,43,0,3.44,clear sky
674,Yamada,JP,39.4667,141.95,46.36,48,5,12.59,clear sky
675,Lorengau,PG,-2.0226,147.2712,82.72,76,100,5.14,overcast clouds
676,Changping,CN,40.2186,116.2197,49.64,22,6,3.38,clear sky
677,San Francisco,US,37.7749,-122.4194,65.1,64,75,14.97,broken clouds
678,Maragogi,BR,-9.0122,-35.2225,78.49,85,97,8.37,overcast clouds
679,Crepy-En-Valois,FR,49.2336,2.8881,48.34,66,0,2.44,clear sky
680,Jaypur,IN,18.85,82.5833,74.39,20,76,2.17,broken clouds
681,Merano,IT,46.6682,11.1595,47.66,53,0,4.54,clear sky
682,Bambey,SN,14.6955,-16.4493,71.65,67,98,12.28,overcast clouds
683,Taltal,CL,-25.4,-70.4833,68.47,68,0,3.51,clear sky
684,Olcea,RO,46.6833,21.9833,33.42,44,2,3.36,clear sky
685,Atlantic City,US,39.3643,-74.4229,37.04,39,10,23.94,clear sky
686,Kamenka,RU,51.3223,42.7678,23.02,81,100,18.88,overcast clouds
687,Erdaojiang,CN,41.7764,126.0319,41.2,27,0,8.3,clear sky
688,Livadi,GR,40.125,22.1517,38.97,59,100,0.85,overcast clouds
689,Husavik,IS,66.0449,-17.3389,24.04,71,98,6.38,overcast clouds
690,Storsteinnes,NO,69.2408,19.2344,21.85,88,100,7.23,overcast clouds
691,Kuzhener,RU,56.8111,48.9128,17.04,89,100,13.73,overcast clouds
692,Saint Anthony,US,45.0205,-93.218,28.65,33,0,1.99,clear sky
693,Lahij,YE,13.1667,44.5833,73.81,31,5,2.48,clear sky
694,Sisimiut,GL,66.9395,-53.6735,24.28,63,100,12.37,overcast clouds
695,Anadyr,RU,64.75,177.4833,0.48,84,20,11.18,few clouds
696,Tanuku,IN,16.75,81.7,79.16,91,91,4.32,overcast clouds
697,Tonk,IN,26.1667,75.7833,75.92,15,5,7.0,clear sky
698,Altamira,BR,-3.2033,-52.2064,74.08,98,100,2.1,moderate rain
699,Pangody,RU,65.85,74.4859,12.27,93,99,13.98,overcast clouds
700,Bograd,RU,54.2344,90.8328,10.71,78,30,2.66,scattered clouds
701,Kumluca,TR,36.3703,30.2869,55.58,42,0,6.89,clear sky
702,Tongren,CN,27.7172,109.1853,56.88,76,0,1.21,clear sky
703,Bouar,CF,5.934,15.596,67.41,22,87,4.09,overcast clouds
704,Jumla,NP,29.2747,82.1838,47.05,52,1,4.05,clear sky
705,South Venice,US,27.0531,-82.4243,69.98,62,0,8.05,haze
706,Poronaysk,RU,49.2167,143.1167,29.44,66,100,12.93,overcast clouds
